{
	"pokestops": [],
	"pokemons": [{
		"stamina": 6,
		"spawnpoint_id": "125929495s",
		"pokemon_id": 7,
		"name": "Squirtle",
		"longitude": -86.1609880800346,
		"latitude": 39.7683676874262,
		"encounter_id": "4301820551913465469",
		"disappear_time": 1474241188244,
		"defense": 5,
		"attack": 0
	}, {
		"stamina": -1,
		"spawnpoint_id": "125928627s",
		"pokemon_id": 16,
		"name": "Pidgey",
		"longitude": -86.1608290904242,
		"latitude": 39.7674783410257,
		"encounter_id": "12795504928289561773",
		"disappear_time": 1474241123836,
		"defense": -1,
		"attack": -1
	}, {
		"stamina": -1,
		"spawnpoint_id": "125932334s",
		"pokemon_id": 129,
		"name": "Magikarp",
		"longitude": -86.1608290904242,
		"latitude": 39.7689250444158,
		"encounter_id": "13841992124650404349",
		"disappear_time": 1474241122636,
		"defense": -1,
		"attack": -1
	}, {
		"stamina": -1,
		"spawnpoint_id": "125928721s",
		"pokemon_id": 13,
		"name": "Weedle",
		"longitude": -86.1605111097209,
		"latitude": 39.7679500869944,
		"encounter_id": "3265598945484315565",
		"disappear_time": 1474241053628,
		"defense": -1,
		"attack": -1
	}, {
		"stamina": -1,
		"spawnpoint_id": "125932950s",
		"pokemon_id": 96,
		"name": "Drowzee",
		"longitude": -86.1604316142363,
		"latitude": 39.770599705988,
		"encounter_id": "15041914661403379053",
		"disappear_time": 1474240954972,
		"defense": -1,
		"attack": -1
	}, {
		"stamina": -1,
		"spawnpoint_id": "125932947s",
		"pokemon_id": 96,
		"name": "Drowzee",
		"longitude": -86.1602726228964,
		"latitude": 39.7707551975255,
		"encounter_id": "9612877193322525341",
		"disappear_time": 1474241158812,
		"defense": -1,
		"attack": -1
	}, {
		"stamina": -1,
		"spawnpoint_id": "125928468s",
		"pokemon_id": 41,
		"name": "Zubat",
		"longitude": -86.1601136310623,
		"latitude": 39.7675351054017,
		"encounter_id": "18016790701200904045",
		"disappear_time": 1474241668332,
		"defense": -1,
		"attack": -1
	}, {
		"stamina": 4,
		"spawnpoint_id": "125929840s",
		"pokemon_id": 74,
		"name": "Geodude",
		"longitude": -86.1596366525955,
		"latitude": 39.7687249501256,
		"encounter_id": "16633508388861127741",
		"disappear_time": 1474241192260,
		"defense": 6,
		"attack": 9
	}, {
		"stamina": -1,
		"spawnpoint_id": "125928337s",
		"pokemon_id": 19,
		"name": "Rattata",
		"longitude": -86.159557155752,
		"latitude": 39.7684008388064,
		"encounter_id": "1726280739035192045",
		"disappear_time": 1474241042156,
		"defense": -1,
		"attack": -1
	}, {
		"stamina": -1,
		"spawnpoint_id": "125936228s",
		"pokemon_id": 10,
		"name": "Caterpie",
		"longitude": -86.1574901944639,
		"latitude": 39.7785389933265,
		"encounter_id": "1852632492043782701",
		"disappear_time": 1474240977812,
		"defense": -1,
		"attack": -1
	}, {
		"stamina": 4,
		"spawnpoint_id": "125933267s",
		"pokemon_id": 35,
		"name": "Clefairy",
		"longitude": -86.1572516935575,
		"latitude": 39.775316687617,
		"encounter_id": "14348149693559823069",
		"disappear_time": 1474241019596,
		"defense": 1,
		"attack": 3
	}, {
		"stamina": -1,
		"spawnpoint_id": "125930129s",
		"pokemon_id": 35,
		"name": "Clefairy",
		"longitude": -86.1570926923356,
		"latitude": 39.772337938999,
		"encounter_id": "15447651082313387469",
		"disappear_time": 1474240958036,
		"defense": -1,
		"attack": -1
	}, {
		"stamina": -1,
		"spawnpoint_id": "125938335s",
		"pokemon_id": 124,
		"name": "Jynx",
		"longitude": -86.1569336906197,
		"latitude": 39.7789224043728,
		"encounter_id": "16314295352301802733",
		"disappear_time": 1474241494500,
		"defense": -1,
		"attack": -1
	}, {
		"stamina": -1,
		"spawnpoint_id": "125935264s",
		"pokemon_id": 19,
		"name": "Rattata",
		"longitude": -86.1566156857056,
		"latitude": 39.7782690319774,
		"encounter_id": "10673016613254310413",
		"disappear_time": 1474241645716,
		"defense": -1,
		"attack": -1
	}, {
		"stamina": -1,
		"spawnpoint_id": "125934638s",
		"pokemon_id": 32,
		"name": "Nidoran?",
		"longitude": -86.1565361841683,
		"latitude": 39.777462811362,
		"encounter_id": "7516603845775160605",
		"disappear_time": 1474241619420,
		"defense": -1,
		"attack": -1
	}, {
		"stamina": 12,
		"spawnpoint_id": "125931803s",
		"pokemon_id": 35,
		"name": "Clefairy",
		"longitude": -86.1564566825075,
		"latitude": 39.7746475215835,
		"encounter_id": "16127754202159906429",
		"disappear_time": 1474241278908,
		"defense": 6,
		"attack": 0
	}, {
		"stamina": 0,
		"spawnpoint_id": "125931558s",
		"pokemon_id": 35,
		"name": "Clefairy",
		"longitude": -86.1562976788153,
		"latitude": 39.7745619051678,
		"encounter_id": "6148673668854566621",
		"disappear_time": 1474241054948,
		"defense": 2,
		"attack": 0
	}, {
		"stamina": -1,
		"spawnpoint_id": "125931009s",
		"pokemon_id": 96,
		"name": "Drowzee",
		"longitude": -86.1562181767839,
		"latitude": 39.772871616327,
		"encounter_id": "7466347027114153741",
		"disappear_time": 1474241397156,
		"defense": -1,
		"attack": -1
	}, {
		"stamina": -1,
		"spawnpoint_id": "125924616s",
		"pokemon_id": 98,
		"name": "Krabby",
		"longitude": -86.1560591723507,
		"latitude": 39.766597494887,
		"encounter_id": "1418816472047129613",
		"disappear_time": 1474240960260,
		"defense": -1,
		"attack": -1
	}, {
		"stamina": 2,
		"spawnpoint_id": "125933347s",
		"pokemon_id": 97,
		"name": "Hypno",
		"longitude": -86.155706,
		"latitude": 39.775701,
		"encounter_id": "1710949791",
		"disappear_time": 1474241490719,
		"defense": 7,
		"attack": 12
	}, {
		"stamina": -1,
		"spawnpoint_id": "125931569s",
		"pokemon_id": 41,
		"name": "Zubat",
		"longitude": -86.1549461274847,
		"latitude": 39.7758030541471,
		"encounter_id": "8662094920394243117",
		"disappear_time": 1474241032892,
		"defense": -1,
		"attack": -1
	}],
	"gyms": []
}
