{
	"pokestops": [],
	"pokemons": [{
		"stamina": 5,
		"spawnpoint_id": "132991253s",
		"pokemon_id": 116,
		"name": "Horsea",
		"longitude": -97.5196900359095,
		"latitude": 35.4692434658084,
		"encounter_id": "15820452799580130173",
		"disappear_time": 1473440061613,
		"defense": 7,
		"attack": 11
	}, {
		"stamina": 15,
		"spawnpoint_id": "132991813s",
		"pokemon_id": 127,
		"name": "Pinsir",
		"longitude": -97.5196900359095,
		"latitude": 35.4695839067936,
		"encounter_id": "10043620765997182877",
		"disappear_time": 1473440093721,
		"defense": 7,
		"attack": 14
	}, {
		"stamina": -1,
		"spawnpoint_id": "132988303s",
		"pokemon_id": 13,
		"name": "Weedle",
		"longitude": -97.5190131884562,
		"latitude": 35.4690303552787,
		"encounter_id": "907887711505783565",
		"disappear_time": 1473440000627,
		"defense": -1,
		"attack": -1
	}, {
		"stamina": -1,
		"spawnpoint_id": "132986399s",
		"pokemon_id": 19,
		"name": "Rattata",
		"longitude": -97.5174903059295,
		"latitude": 35.4685295593648,
		"encounter_id": "8307335776841669021",
		"disappear_time": 1473440000627,
		"defense": -1,
		"attack": -1
	}, {
		"stamina": -1,
		"spawnpoint_id": "132988527s",
		"pokemon_id": 118,
		"name": "Goldeen",
		"longitude": -97.517382,
		"latitude": 35.468785,
		"encounter_id": "18446744073681394302",
		"disappear_time": 1473440000627,
		"defense": -1,
		"attack": -1
	}, {
		"stamina": -1,
		"spawnpoint_id": "132985004s",
		"pokemon_id": 19,
		"name": "Rattata",
		"longitude": -97.5167288772546,
		"latitude": 35.4678961471699,
		"encounter_id": "2637548145264345613",
		"disappear_time": 1473440000627,
		"defense": -1,
		"attack": -1
	}, {
		"stamina": 10,
		"spawnpoint_id": "132985691s",
		"pokemon_id": 123,
		"name": "Scyther",
		"longitude": -97.5146984418209,
		"latitude": 35.4685334127841,
		"encounter_id": "5308788414301016493",
		"disappear_time": 1473439887703,
		"defense": 12,
		"attack": 14
	}, {
		"stamina": -1,
		"spawnpoint_id": "132980097s",
		"pokemon_id": 19,
		"name": "Rattata",
		"longitude": -97.5113145154114,
		"latitude": 35.4684038691638,
		"encounter_id": "12233358578888544205",
		"disappear_time": 1473439887703,
		"defense": -1,
		"attack": -1
	}, {
		"stamina": -1,
		"spawnpoint_id": "132976921s",
		"pokemon_id": 19,
		"name": "Rattata",
		"longitude": -97.5104685597197,
		"latitude": 35.4660733957368,
		"encounter_id": "7712316434848363949",
		"disappear_time": 1473439887703,
		"defense": -1,
		"attack": -1
	}, {
		"stamina": -1,
		"spawnpoint_id": "132979670s",
		"pokemon_id": 16,
		"name": "Pidgey",
		"longitude": -97.5104685597197,
		"latitude": 35.4688821397628,
		"encounter_id": "11782802902587356621",
		"disappear_time": 1473439887703,
		"defense": -1,
		"attack": -1
	}, {
		"stamina": -1,
		"spawnpoint_id": "132973569s",
		"pokemon_id": 19,
		"name": "Rattata",
		"longitude": -97.5097072084594,
		"latitude": 35.4634822206166,
		"encounter_id": "13018318486434718573",
		"disappear_time": 1473439930000,
		"defense": -1,
		"attack": -1
	}, {
		"stamina": 6,
		"spawnpoint_id": "132974866s",
		"pokemon_id": 79,
		"name": "Slowpoke",
		"longitude": -97.5095380204307,
		"latitude": 35.4637481126941,
		"encounter_id": "5362384455842422461",
		"disappear_time": 1473439670440,
		"defense": 12,
		"attack": 6
	}, {
		"stamina": -1,
		"spawnpoint_id": "132973856s",
		"pokemon_id": 42,
		"name": "Golbat",
		"longitude": -97.509094,
		"latitude": 35.463923,
		"encounter_id": "18446744072434073030",
		"disappear_time": 1473439318000,
		"defense": -1,
		"attack": -1
	}, {
		"stamina": -1,
		"spawnpoint_id": "132972914s",
		"pokemon_id": 19,
		"name": "Rattata",
		"longitude": -97.508666,
		"latitude": 35.463869,
		"encounter_id": "18446744071743211538",
		"disappear_time": 1473439363000,
		"defense": -1,
		"attack": -1
	}, {
		"stamina": 12,
		"spawnpoint_id": "132973574s",
		"pokemon_id": 52,
		"name": "Meowth",
		"longitude": -97.508666,
		"latitude": 35.463869,
		"encounter_id": "18446744071743208655",
		"disappear_time": 1473439557393,
		"defense": 7,
		"attack": 14
	}, {
		"stamina": -1,
		"spawnpoint_id": "132971802s",
		"pokemon_id": 16,
		"name": "Pidgey",
		"longitude": -97.5085229009659,
		"latitude": 35.4629601632957,
		"encounter_id": "4016756838492937997",
		"disappear_time": 1473439557393,
		"defense": -1,
		"attack": -1
	}, {
		"stamina": -1,
		"spawnpoint_id": "132970763s",
		"pokemon_id": 13,
		"name": "Weedle",
		"longitude": -97.5066618873848,
		"latitude": 35.4638421228781,
		"encounter_id": "8408643954020725725",
		"disappear_time": 1473439557393,
		"defense": -1,
		"attack": -1
	}, {
		"stamina": -1,
		"spawnpoint_id": "132971670s",
		"pokemon_id": 100,
		"name": "Voltorb",
		"longitude": -97.5064081166933,
		"latitude": 35.463262098139,
		"encounter_id": "17309884095613733789",
		"disappear_time": 1473439810233,
		"defense": -1,
		"attack": -1
	}, {
		"stamina": 5,
		"spawnpoint_id": "132968991s",
		"pokemon_id": 79,
		"name": "Slowpoke",
		"longitude": -97.5058159887085,
		"latitude": 35.4615965802098,
		"encounter_id": "3300000600584958221",
		"disappear_time": 1473439636779,
		"defense": 14,
		"attack": 10
	}, {
		"stamina": -1,
		"spawnpoint_id": "132970023s",
		"pokemon_id": 54,
		"name": "Psyduck",
		"longitude": -97.5058159887085,
		"latitude": 35.4631287292174,
		"encounter_id": "1013921040350774989",
		"disappear_time": 1473439810233,
		"defense": -1,
		"attack": -1
	}, {
		"stamina": -1,
		"spawnpoint_id": "132966722s",
		"pokemon_id": 54,
		"name": "Psyduck",
		"longitude": -97.5055622211274,
		"latitude": 35.4600802014454,
		"encounter_id": "10498414372717217469",
		"disappear_time": 1473439362737,
		"defense": -1,
		"attack": -1
	}, {
		"stamina": 14,
		"spawnpoint_id": "132969170s",
		"pokemon_id": 129,
		"name": "Magikarp",
		"longitude": -97.5053930432584,
		"latitude": 35.4611973098433,
		"encounter_id": "13574624775661731405",
		"disappear_time": 1473439374572,
		"defense": 8,
		"attack": 4
	}],
	"gyms": []
}
