{"pokestops":[],"pokemons":[{"stamina":-1,"spawnpoint_id":"159235121s","pokemon_id":52,"name":"Meowth","longitude":-121.901928805349,"latitude":37.3321533714026,"encounter_id":"10795450738184187325","disappear_time":1472925450701,"defense":-1,"attack":-1},{"stamina":-1,"spawnpoint_id":"159220619s","pokemon_id":16,"name":"Pidgey","longitude":-121.888145977096,"latitude":37.3321548510867,"encounter_id":"8604901901858808429","disappear_time":1472925740000,"defense":-1,"attack":-1},{"stamina":-1,"spawnpoint_id":"159223647s","pokemon_id":98,"name":"Krabby","longitude":-121.888946317383,"latitude":37.3327416786851,"encounter_id":"2566085731151030045","disappear_time":1472925789000,"defense":-1,"attack":-1},{"stamina":-1,"spawnpoint_id":"159222608s","pokemon_id":23,"name":"Ekans","longitude":-121.889390948371,"latitude":37.3327586329875,"encounter_id":"15232449784102148125","disappear_time":1472925899000,"defense":-1,"attack":-1},{"stamina":-1,"spawnpoint_id":"159234364s","pokemon_id":111,"name":"Rhyhorn","longitude":-121.898194273419,"latitude":37.3339507940808,"encounter_id":"7527981249707212557","disappear_time":1472925817000,"defense":-1,"attack":-1},{"stamina":-1,"spawnpoint_id":"159236091s","pokemon_id":138,"name":"Omanyte","longitude":-121.898816704182,"latitude":37.3345156747111,"encounter_id":"2870761363813615805","disappear_time":1472926150312,"defense":-1,"attack":-1},{"stamina":-1,"spawnpoint_id":"159213884s","pokemon_id":46,"name":"Paras","longitude":-121.878096767028,"latitude":37.3348683774735,"encounter_id":"11128187764808077005","disappear_time":1472925749000,"defense":-1,"attack":-1},{"stamina":-1,"spawnpoint_id":"159236045s","pokemon_id":60,"name":"Poliwag","longitude":-121.899261295435,"latitude":37.3355849229938,"encounter_id":"6177983349812616669","disappear_time":1472925619000,"defense":-1,"attack":-1},{"stamina":-1,"spawnpoint_id":"159236020s","pokemon_id":10,"name":"Caterpie","longitude":-121.899794802575,"latitude":37.3360261284217,"encounter_id":"17687914339202639901","disappear_time":1472926022450,"defense":-1,"attack":-1},{"stamina":15,"spawnpoint_id":"159238436s","pokemon_id":147,"name":"Dratini","longitude":-121.899439131435,"latitude":37.3360577156023,"encounter_id":"12134546363269564509","disappear_time":1472925745000,"defense":5,"attack":5},{"stamina":-1,"spawnpoint_id":"159236408s","pokemon_id":10,"name":"Caterpie","longitude":-121.899705884898,"latitude":37.3365038150894,"encounter_id":"5917674040051436781","disappear_time":1472925367000,"defense":-1,"attack":-1},{"stamina":-1,"spawnpoint_id":"159214729s","pokemon_id":18,"name":"Pidgeot","longitude":-121.877741026042,"latitude":37.3366289819063,"encounter_id":"7424454738549952701","disappear_time":1472925687388,"defense":-1,"attack":-1},{"stamina":-1,"spawnpoint_id":"159238526s","pokemon_id":54,"name":"Psyduck","longitude":-121.900506141418,"latitude":37.3369401051974,"encounter_id":"10643198684997600717","disappear_time":1472925640000,"defense":-1,"attack":-1},{"stamina":-1,"spawnpoint_id":"159247872s","pokemon_id":126,"name":"Magmar","longitude":-121.908152744389,"latitude":37.3372000999877,"encounter_id":"5153172884451338797","disappear_time":1472925752000,"defense":-1,"attack":-1},{"stamina":-1,"spawnpoint_id":"159247642s","pokemon_id":46,"name":"Paras","longitude":-121.906996896546,"latitude":37.3397267821608,"encounter_id":"16859686244860452941","disappear_time":1472925544000,"defense":-1,"attack":-1},{"stamina":-1,"spawnpoint_id":"159249520s","pokemon_id":133,"name":"Eevee","longitude":-121.907085808349,"latitude":37.339775245887,"encounter_id":"3775908470394954557","disappear_time":1472925517000,"defense":-1,"attack":-1},{"stamina":-1,"spawnpoint_id":"159248317s","pokemon_id":21,"name":"Spearow","longitude":-121.90770818896,"latitude":37.3401896452701,"encounter_id":"10999850361121998941","disappear_time":1472925732000,"defense":-1,"attack":-1},{"stamina":-1,"spawnpoint_id":"159228740s","pokemon_id":19,"name":"Rattata","longitude":-121.886989919783,"latitude":37.341371993133,"encounter_id":"4307239630988157533","disappear_time":1472925613000,"defense":-1,"attack":-1},{"stamina":-1,"spawnpoint_id":"159250948s","pokemon_id":48,"name":"Venonat","longitude":-121.905218645446,"latitude":37.3447701065557,"encounter_id":"14133201355189472317","disappear_time":1472925580000,"defense":-1,"attack":-1},{"stamina":-1,"spawnpoint_id":"159218761s","pokemon_id":58,"name":"Growlithe","longitude":-121.872049014705,"latitude":37.3455526032192,"encounter_id":"14255899429613444221","disappear_time":1472925832000,"defense":-1,"attack":-1},{"stamina":-1,"spawnpoint_id":"159225888s","pokemon_id":19,"name":"Rattata","longitude":-121.877652090617,"latitude":37.3478562442066,"encounter_id":"11791173484617514189","disappear_time":1472925321000,"defense":-1,"attack":-1}],"gyms":[]}